[
  {
    "lgd_code": "001",
    "name": "Ernakulam",
    "state": "Kerala",
    "centroid_lat": 9.57308621967833,
    "centroid_lng": 76.2838707647846,
    "population": 613264,
    "open_defecation_pct": 38.46245583219579,
    "elderly_child_pct": 33.456708056297366,
    "hospital_density_per_100k": 48.433584878810485,
    "river_danger_mark_m": 13.65073042479684,
    "historical_flood_freq_per_decade": 10
  },
  {
    "lgd_code": "002",
    "name": "Thrissur",
    "state": "Kerala",
    "centroid_lat": 10.381968870135648,
    "centroid_lng": 76.76382089843402,
    "population": 1944704,
    "open_defecation_pct": 6.630937319522151,
    "elderly_child_pct": 24.161142046870715,
    "hospital_density_per_100k": 14.271205226519982,
    "river_danger_mark_m": 14.679529920716826,
    "historical_flood_freq_per_decade": 4
  },
  {
    "lgd_code": "003",
    "name": "Alappuzha",
    "state": "Kerala",
    "centroid_lat": 10.049668218610417,
    "centroid_lng": 76.85588204984101,
    "population": 599481,
    "open_defecation_pct": 12.583639261823638,
    "elderly_child_pct": 33.86426842372082,
    "hospital_density_per_100k": 54.31166708548966,
    "river_danger_mark_m": 22.211698882283333,
    "historical_flood_freq_per_decade": 3
  },
  {
    "lgd_code": "004",
    "name": "Idukki",
    "state": "Kerala",
    "centroid_lat": 10.32045740522907,
    "centroid_lng": 76.47516761503582,
    "population": 4422796,
    "open_defecation_pct": 7.705286945893537,
    "elderly_child_pct": 28.704186064909553,
    "hospital_density_per_100k": 67.0988865473356,
    "river_danger_mark_m": 13.786217922901725,
    "historical_flood_freq_per_decade": 7
  },
  {
    "lgd_code": "005",
    "name": "Kottayam",
    "state": "Kerala",
    "centroid_lat": 10.478753125790666,
    "centroid_lng": 76.61738607352308,
    "population": 3302014,
    "open_defecation_pct": 11.219363304372033,
    "elderly_child_pct": 30.020952823590243,
    "hospital_density_per_100k": 44.51601985021948,
    "river_danger_mark_m": 14.235440894758835,
    "historical_flood_freq_per_decade": 7
  },
  {
    "lgd_code": "006",
    "name": "Wayanad",
    "state": "Kerala",
    "centroid_lat": 10.008864395771468,
    "centroid_lng": 76.95857407761902,
    "population": 1745320,
    "open_defecation_pct": 22.27257416576642,
    "elderly_child_pct": 33.34264804439361,
    "hospital_density_per_100k": 58.5200839498225,
    "river_danger_mark_m": 25.588477704744086,
    "historical_flood_freq_per_decade": 10
  },
  {
    "lgd_code": "007",
    "name": "Cachar",
    "state": "Assam",
    "centroid_lat": 26.30920190349282,
    "centroid_lng": 92.99996187425364,
    "population": 487346,
    "open_defecation_pct": 17.43208747361713,
    "elderly_child_pct": 33.42124625394098,
    "hospital_density_per_100k": 76.33728140485353,
    "river_danger_mark_m": 7.8142742197802075,
    "historical_flood_freq_per_decade": 4
  },
  {
    "lgd_code": "008",
    "name": "Nagaon",
    "state": "Assam",
    "centroid_lat": 26.37852645944044,
    "centroid_lng": 92.7565574941886,
    "population": 1830844,
    "open_defecation_pct": 19.868685406689252,
    "elderly_child_pct": 44.645165520389426,
    "hospital_density_per_100k": 75.37583327204578,
    "river_danger_mark_m": 25.18608094969146,
    "historical_flood_freq_per_decade": 3
  },
  {
    "lgd_code": "009",
    "name": "Barpeta",
    "state": "Assam",
    "centroid_lat": 25.831056946874842,
    "centroid_lng": 92.50070865579089,
    "population": 2070884,
    "open_defecation_pct": 11.449365576282396,
    "elderly_child_pct": 42.39700178081878,
    "hospital_density_per_100k": 16.840768325641605,
    "river_danger_mark_m": 21.999833817212274,
    "historical_flood_freq_per_decade": 3
  },
  {
    "lgd_code": "010",
    "name": "Dhemaji",
    "state": "Assam",
    "centroid_lat": 25.948531971431446,
    "centroid_lng": 92.29360589061598,
    "population": 2407323,
    "open_defecation_pct": 25.45388082549246,
    "elderly_child_pct": 31.02568244690304,
    "hospital_density_per_100k": 97.51068506092282,
    "river_danger_mark_m": 11.396833191671352,
    "historical_flood_freq_per_decade": 8
  },
  {
    "lgd_code": "011",
    "name": "Morigaon",
    "state": "Assam",
    "centroid_lat": 25.969020129131934,
    "centroid_lng": 92.71304809913312,
    "population": 1140285,
    "open_defecation_pct": 36.72856434648522,
    "elderly_child_pct": 36.37375105080427,
    "hospital_density_per_100k": 79.34539657797788,
    "river_danger_mark_m": 17.952991014803313,
    "historical_flood_freq_per_decade": 9
  },
  {
    "lgd_code": "012",
    "name": "Lakhimpur",
    "state": "Assam",
    "centroid_lat": 26.47250841040217,
    "centroid_lng": 92.77277848050801,
    "population": 4769145,
    "open_defecation_pct": 15.82336411803388,
    "elderly_child_pct": 33.03215005601129,
    "hospital_density_per_100k": 82.39179656131479,
    "river_danger_mark_m": 21.807380712217768,
    "historical_flood_freq_per_decade": 2
  },
  {
    "lgd_code": "013",
    "name": "Chennai",
    "state": "Tamil Nadu",
    "centroid_lat": 12.46315163940286,
    "centroid_lng": 80.16816658737363,
    "population": 2771741,
    "open_defecation_pct": 29.688242531571994,
    "elderly_child_pct": 17.196601196220463,
    "hospital_density_per_100k": 12.235051674363701,
    "river_danger_mark_m": 19.891728822042158,
    "historical_flood_freq_per_decade": 10
  },
  {
    "lgd_code": "014",
    "name": "Kancheepuram",
    "state": "Tamil Nadu",
    "centroid_lat": 12.858884050006704,
    "centroid_lng": 79.90995499596035,
    "population": 384036,
    "open_defecation_pct": 39.25589912090972,
    "elderly_child_pct": 41.08901786347828,
    "hospital_density_per_100k": 10.012700090237061,
    "river_danger_mark_m": 23.580537661824152,
    "historical_flood_freq_per_decade": 7
  },
  {
    "lgd_code": "015",
    "name": "Cuddalore",
    "state": "Tamil Nadu",
    "centroid_lat": 12.328162962032554,
    "centroid_lng": 80.41459473632302,
    "population": 3297387,
    "open_defecation_pct": 6.935930392422933,
    "elderly_child_pct": 40.04369817397334,
    "hospital_density_per_100k": 86.7405571564341,
    "river_danger_mark_m": 9.922458959912344,
    "historical_flood_freq_per_decade": 2
  },
  {
    "lgd_code": "016",
    "name": "Tiruvallur",
    "state": "Tamil Nadu",
    "centroid_lat": 12.707557410816323,
    "centroid_lng": 79.99295264525165,
    "population": 3472411,
    "open_defecation_pct": 28.223831888511157,
    "elderly_child_pct": 25.31811656346934,
    "hospital_density_per_100k": 98.4982584521971,
    "river_danger_mark_m": 10.08461497250277,
    "historical_flood_freq_per_decade": 5
  },
  {
    "lgd_code": "017",
    "name": "Nagapattinam",
    "state": "Tamil Nadu",
    "centroid_lat": 12.998798743509273,
    "centroid_lng": 80.25219629286484,
    "population": 2887299,
    "open_defecation_pct": 30.305921613317985,
    "elderly_child_pct": 20.87312075580573,
    "hospital_density_per_100k": 50.58557437110998,
    "river_danger_mark_m": 25.31242852178299,
    "historical_flood_freq_per_decade": 6
  },
  {
    "lgd_code": "018",
    "name": "Darbhanga",
    "state": "Bihar",
    "centroid_lat": 26.465566078373087,
    "centroid_lng": 85.88710381533441,
    "population": 2128066,
    "open_defecation_pct": 27.474704752971356,
    "elderly_child_pct": 19.61977549752137,
    "hospital_density_per_100k": 31.380612028902895,
    "river_danger_mark_m": 11.917499259591553,
    "historical_flood_freq_per_decade": 6
  },
  {
    "lgd_code": "019",
    "name": "Muzaffarpur",
    "state": "Bihar",
    "centroid_lat": 25.96655760035264,
    "centroid_lng": 85.54413860377707,
    "population": 3185925,
    "open_defecation_pct": 38.42794167730071,
    "elderly_child_pct": 33.07712827936409,
    "hospital_density_per_100k": 20.709159445176475,
    "river_danger_mark_m": 8.010143704380747,
    "historical_flood_freq_per_decade": 8
  },
  {
    "lgd_code": "020",
    "name": "Purnia",
    "state": "Bihar",
    "centroid_lat": 25.873524126351864,
    "centroid_lng": 85.59706732434485,
    "population": 3840872,
    "open_defecation_pct": 28.108114321442052,
    "elderly_child_pct": 21.076002139466986,
    "hospital_density_per_100k": 43.96361011941519,
    "river_danger_mark_m": 18.6554180752036,
    "historical_flood_freq_per_decade": 5
  },
  {
    "lgd_code": "021",
    "name": "Katihar",
    "state": "Bihar",
    "centroid_lat": 26.16750484446331,
    "centroid_lng": 85.58059300373597,
    "population": 2250119,
    "open_defecation_pct": 35.66529554727343,
    "elderly_child_pct": 25.56853057924754,
    "hospital_density_per_100k": 62.95262107097063,
    "river_danger_mark_m": 26.340375832665227,
    "historical_flood_freq_per_decade": 1
  },
  {
    "lgd_code": "022",
    "name": "Saharsa",
    "state": "Bihar",
    "centroid_lat": 25.823918419947287,
    "centroid_lng": 86.05260348871886,
    "population": 2838060,
    "open_defecation_pct": 5.830818238441269,
    "elderly_child_pct": 38.22635573941636,
    "hospital_density_per_100k": 68.95151301106893,
    "river_danger_mark_m": 14.543818466731707,
    "historical_flood_freq_per_decade": 10
  },
  {
    "lgd_code": "023",
    "name": "Puri",
    "state": "Odisha",
    "centroid_lat": 20.160944894324196,
    "centroid_lng": 85.65000096603409,
    "population": 4386278,
    "open_defecation_pct": 5.576073080279364,
    "elderly_child_pct": 21.61062948396939,
    "hospital_density_per_100k": 81.45095101774722,
    "river_danger_mark_m": 6.268228154980111,
    "historical_flood_freq_per_decade": 8
  },
  {
    "lgd_code": "024",
    "name": "Balasore",
    "state": "Odisha",
    "centroid_lat": 20.27798987005779,
    "centroid_lng": 85.93807541313245,
    "population": 4765165,
    "open_defecation_pct": 6.874302681693356,
    "elderly_child_pct": 34.394385424580236,
    "hospital_density_per_100k": 92.36989284733994,
    "river_danger_mark_m": 11.650239715462758,
    "historical_flood_freq_per_decade": 3
  },
  {
    "lgd_code": "025",
    "name": "Kendrapara",
    "state": "Odisha",
    "centroid_lat": 19.94443422999027,
    "centroid_lng": 85.75945503325157,
    "population": 3295116,
    "open_defecation_pct": 38.03773938894305,
    "elderly_child_pct": 32.22288482005341,
    "hospital_density_per_100k": 49.693116463061386,
    "river_danger_mark_m": 25.833164866618905,
    "historical_flood_freq_per_decade": 6
  },
  {
    "lgd_code": "026",
    "name": "Ganjam",
    "state": "Odisha",
    "centroid_lat": 20.2590436741406,
    "centroid_lng": 85.25335260476956,
    "population": 825770,
    "open_defecation_pct": 39.29595283840589,
    "elderly_child_pct": 28.15362021823617,
    "hospital_density_per_100k": 49.702300229054714,
    "river_danger_mark_m": 13.66785515944532,
    "historical_flood_freq_per_decade": 2
  },
  {
    "lgd_code": "027",
    "name": "Jagatsinghpur",
    "state": "Odisha",
    "centroid_lat": 20.152605302415907,
    "centroid_lng": 85.0063895233759,
    "population": 2781629,
    "open_defecation_pct": 17.949403786681025,
    "elderly_child_pct": 35.859605762813786,
    "hospital_density_per_100k": 36.00586898172585,
    "river_danger_mark_m": 13.56462105446803,
    "historical_flood_freq_per_decade": 9
  },
  {
    "lgd_code": "028",
    "name": "Malda",
    "state": "West Bengal",
    "centroid_lat": 23.502809831453746,
    "centroid_lng": 88.13313587293126,
    "population": 2933740,
    "open_defecation_pct": 8.129794392797791,
    "elderly_child_pct": 22.74879644502324,
    "hospital_density_per_100k": 93.18336254192704,
    "river_danger_mark_m": 28.837195870799896,
    "historical_flood_freq_per_decade": 10
  },
  {
    "lgd_code": "029",
    "name": "Murshidabad",
    "state": "West Bengal",
    "centroid_lat": 23.735732787822812,
    "centroid_lng": 88.00536222017791,
    "population": 392689,
    "open_defecation_pct": 16.890549861238668,
    "elderly_child_pct": 41.173165299095416,
    "hospital_density_per_100k": 64.93147187773478,
    "river_danger_mark_m": 14.980162155254705,
    "historical_flood_freq_per_decade": 6
  },
  {
    "lgd_code": "030",
    "name": "Howrah",
    "state": "West Bengal",
    "centroid_lat": 24.117202468762308,
    "centroid_lng": 88.13840550611535,
    "population": 2000592,
    "open_defecation_pct": 18.395383159538362,
    "elderly_child_pct": 19.14631208929152,
    "hospital_density_per_100k": 90.2695471877101,
    "river_danger_mark_m": 13.784912383609313,
    "historical_flood_freq_per_decade": 8
  },
  {
    "lgd_code": "031",
    "name": "North 24 Parganas",
    "state": "West Bengal",
    "centroid_lat": 24.49492580080878,
    "centroid_lng": 87.62708955914142,
    "population": 4809747,
    "open_defecation_pct": 37.20718975559191,
    "elderly_child_pct": 16.746242144235158,
    "hospital_density_per_100k": 82.95280598512967,
    "river_danger_mark_m": 21.87672428006544,
    "historical_flood_freq_per_decade": 10
  },
  {
    "lgd_code": "032",
    "name": "Cooch Behar",
    "state": "West Bengal",
    "centroid_lat": 24.389901057928952,
    "centroid_lng": 88.40730858654896,
    "population": 1146826,
    "open_defecation_pct": 31.03865777170023,
    "elderly_child_pct": 24.095291210492412,
    "hospital_density_per_100k": 83.87622757825793,
    "river_danger_mark_m": 7.422896653095627,
    "historical_flood_freq_per_decade": 7
  },
  {
    "lgd_code": "033",
    "name": "Gorakhpur",
    "state": "Uttar Pradesh",
    "centroid_lat": 26.062705414031225,
    "centroid_lng": 82.70833627744062,
    "population": 3150224,
    "open_defecation_pct": 31.78218413348111,
    "elderly_child_pct": 26.929579059973847,
    "hospital_density_per_100k": 42.525203350879764,
    "river_danger_mark_m": 14.543544740466572,
    "historical_flood_freq_per_decade": 2
  },
  {
    "lgd_code": "034",
    "name": "Ballia",
    "state": "Uttar Pradesh",
    "centroid_lat": 26.04987484615475,
    "centroid_lng": 82.86459847328018,
    "population": 198331,
    "open_defecation_pct": 13.366311662350377,
    "elderly_child_pct": 21.80372305310478,
    "hospital_density_per_100k": 77.25918839418448,
    "river_danger_mark_m": 5.984165326348263,
    "historical_flood_freq_per_decade": 9
  },
  {
    "lgd_code": "035",
    "name": "Varanasi",
    "state": "Uttar Pradesh",
    "centroid_lat": 26.586394014104318,
    "centroid_lng": 82.72953911656424,
    "population": 3509553,
    "open_defecation_pct": 28.25011821369379,
    "elderly_child_pct": 33.13075236446987,
    "hospital_density_per_100k": 42.03404887429418,
    "river_danger_mark_m": 27.572014028694216,
    "historical_flood_freq_per_decade": 4
  },
  {
    "lgd_code": "036",
    "name": "Hyderabad",
    "state": "Telangana",
    "centroid_lat": 17.34281764860434,
    "centroid_lng": 78.29702796163103,
    "population": 4135372,
    "open_defecation_pct": 21.052984531467306,
    "elderly_child_pct": 17.22852938710758,
    "hospital_density_per_100k": 37.38007682835011,
    "river_danger_mark_m": 18.609977456823493,
    "historical_flood_freq_per_decade": 8
  },
  {
    "lgd_code": "037",
    "name": "Kolhapur",
    "state": "Maharashtra",
    "centroid_lat": 16.924413070315026,
    "centroid_lng": 73.7529055364294,
    "population": 3833773,
    "open_defecation_pct": 33.65939780780266,
    "elderly_child_pct": 22.40046334329658,
    "hospital_density_per_100k": 17.687336284629353,
    "river_danger_mark_m": 14.105259006469845,
    "historical_flood_freq_per_decade": 1
  },
  {
    "lgd_code": "038",
    "name": "Vadodara",
    "state": "Gujarat",
    "centroid_lat": 22.639278142384626,
    "centroid_lng": 73.40281784813475,
    "population": 2981101,
    "open_defecation_pct": 10.759401985050532,
    "elderly_child_pct": 26.595703554945153,
    "hospital_density_per_100k": 83.11552968742932,
    "river_danger_mark_m": 8.152357902714947,
    "historical_flood_freq_per_decade": 9
  }
]